City_ID,City,Lat,Lng,Max Temp,Humidity,Cloudiness,Wind Speed
0,Busselton,-33.65,115.3333,54.88,81,16,9.53
1,Ishigaki,24.3448,124.1572,69.93,73,100,8.05
2,Hasaki,35.7333,140.8333,43.2,61,100,8.81
3,Jhalu,29.35,78.25,79.32,18,0,2.59
4,Pisco,-13.7,-76.2167,71.65,68,0,24.16
5,Ushuaia,-54.8,-68.3,44.26,57,20,8.05
6,Sitka,57.0531,-135.33,44.49,59,83,4.88
7,Jijiang,29.2906,106.2542,56.37,92,100,3.38
8,Fairbanks,64.8378,-147.7164,32.23,34,0,9.22
9,Bluff,-46.6,168.3333,40.8,79,97,8.46
10,Rikitea,-23.1203,-134.9692,77.79,72,5,13.58
11,Henties Bay,-22.116,14.2845,60.51,81,14,5.17
12,Upernavik,72.7868,-56.1549,-6.34,90,30,13.02
13,Beidao,34.5686,105.8933,45.07,82,100,2.24
14,Castro,-24.7911,-50.0119,57.42,78,0,2.91
15,Varkaus,62.3153,27.873,28.31,94,64,3.06
16,Albany,42.6001,-73.9662,41.65,87,100,1.01
17,New Norfolk,-42.7826,147.0587,57.92,72,100,2.51
18,Vaini,-21.2,-175.2,82.56,78,40,5.75
19,Mount Gambier,-37.8333,140.7667,67.91,40,40,19.57
20,Saskylakh,71.9167,114.0833,11.7,92,99,15.39
21,Bambous Virieux,-20.3428,57.7575,79.05,78,40,11.5
22,Rock Sound,24.9,-76.2,75.94,78,24,19.66
23,Beyneu,45.3167,55.2,58.48,41,13,6.89
24,San Ramon,37.7799,-121.978,67.82,72,75,16.11
25,Bonthe,7.5264,-12.505,78.62,77,90,8.63
26,Acapulco,16.8634,-99.8901,86.59,51,9,13.73
27,Naze,28.3667,129.4833,58.12,68,81,6.33
28,Avarua,-21.2078,-159.775,80.65,83,20,5.75
29,Soligalich,59.0778,42.2864,24.8,89,13,3.6
30,Sabang,5.8933,95.3214,83.21,68,100,3.33
31,Hokitika,-42.7167,170.9667,53.96,79,92,5.19
32,Uspenka,48.3903,39.1619,49.41,74,100,9.4
33,Luwuk,-0.9516,122.7875,77.95,87,100,2.53
34,Faanui,-16.4833,-151.75,82.02,71,8,14.85
35,Nouadhibou,20.931,-17.0347,64.38,94,20,14.97
36,Liberal,37.0431,-100.921,56.44,28,0,14.99
37,Esperance,-33.8667,121.9,60.64,67,89,12.73
38,Kaitangata,-46.2817,169.8464,45.45,78,76,3.15
39,Ahipara,-35.1667,173.1667,65.25,79,100,12.75
40,Qaanaaq,77.484,-69.3632,-11.25,79,58,4.81
41,Norman Wells,65.282,-126.8329,14.04,41,20,3.44
42,Mubende,0.5606,31.39,59.27,98,100,1.43
43,East London,-33.0153,27.9116,61.81,78,100,8.37
44,Tasiilaq,65.6145,-37.6368,35.76,97,100,14.74
45,Punta Arenas,-53.15,-70.9167,46.51,76,40,11.5
46,Mataura,-46.1927,168.8643,41.49,85,75,2.77
47,Mar Del Plata,-38.0023,-57.5575,69.82,87,0,11.99
48,Waslala,13.2333,-85.3833,95.38,25,58,9.17
49,Nikolskoye,59.7035,30.7861,34.72,82,70,2.86
50,Saint George,37.1041,-113.5841,80.26,14,20,13.0
51,Kodiak,57.79,-152.4072,38.39,79,100,15.86
52,Sao Joaquim,-28.2939,-49.9317,49.12,87,9,4.81
53,Barrow,71.2906,-156.7887,5.63,82,5,16.71
54,Mabai,23.0128,104.4508,59.05,98,100,4.0
55,Hambantota,6.1241,81.1185,80.4,81,51,6.76
56,Broken Hill,-31.95,141.4333,58.71,55,0,9.22
57,Lipnita,44.1,27.6,55.15,76,99,19.17
58,Muisne,0.6,-80.0333,78.93,79,95,8.19
59,Ilulissat,69.2167,-51.1,2.89,84,4,3.0
60,Bambanglipuro,-7.95,110.2833,76.5,90,28,2.98
61,Rundu,-17.9333,19.7667,68.36,81,100,5.3
62,Hermanus,-34.4187,19.2345,57.79,76,2,17.67
63,Huancabamba,-5.2386,-79.4506,66.47,85,78,2.26
64,Carnarvon,-24.8667,113.6333,75.27,73,53,12.66
65,Matara,5.9485,80.5353,79.45,85,66,3.76
66,Dwarka,22.2394,68.9678,79.95,79,0,12.17
67,Aswan,24.0934,32.907,90.7,9,0,5.75
68,Cabo San Lucas,22.8909,-109.9124,89.62,43,100,10.45
69,Hwange,-18.3693,26.5019,68.49,90,100,4.03
70,Ust-Omchug,61.15,149.6333,2.5,99,97,3.58
71,Fortuna,40.5982,-124.1573,56.86,58,40,12.66
72,Berlevag,70.8578,29.0864,37.2,90,100,32.68
73,Oranjemund,-28.55,16.4333,58.44,78,0,9.48
74,Yellowknife,62.456,-114.3525,12.72,52,20,11.5
75,Saint-Pierre,-21.3393,55.4781,75.9,80,20,5.75
76,Hobart,-42.8794,147.3294,58.26,89,0,4.61
77,Sakakah,29.9697,40.2064,71.17,13,5,8.34
78,Iglesias,39.3114,8.535,56.62,79,11,3.49
79,Cape Town,-33.9258,18.4232,60.12,68,0,13.0
80,Georgetown,5.4112,100.3354,80.53,93,20,1.14
81,Dicabisagan,17.0818,122.4157,74.84,90,61,6.13
82,Kabo,7.6994,18.629,80.89,49,8,4.12
83,Port Elizabeth,-33.918,25.5701,63.1,85,97,5.01
84,Deputatskiy,69.3,139.9,5.0,96,100,2.42
85,Pacific Grove,36.6177,-121.9166,62.42,86,94,11.99
86,Grindavik,63.8424,-22.4338,48.15,100,100,16.11
87,Te Anau,-45.4167,167.7167,42.13,86,96,0.98
88,Ancud,-41.8697,-73.8203,64.22,72,23,2.77
89,Lagoa,39.05,-27.9833,59.05,76,31,10.78
90,Kazanskoye,55.6448,69.235,43.9,71,45,6.15
91,Khatanga,71.9667,102.5,17.56,97,99,6.6
92,Ileza,61.0533,43.9002,23.34,95,17,2.13
93,Sao Filipe,14.8961,-24.4956,71.38,78,41,12.17
94,Oda,35.1833,132.5,45.79,50,74,5.99
95,Morag,53.9171,19.926,32.88,94,40,6.35
96,Guanica,17.9716,-66.908,84.51,74,100,17.72
97,Cockburn Town,21.4612,-71.1419,80.56,69,75,18.41
98,Kahului,20.8947,-156.47,71.83,97,100,15.99
99,Puquio,-14.7,-74.1333,62.53,39,72,10.65
100,Neepawa,50.2289,-99.4664,28.8,71,85,4.88
101,Sol-Iletsk,51.1631,54.9918,44.44,63,14,6.06
102,Kapaa,22.0752,-159.319,80.58,90,92,5.01
103,Puerto Ayora,-0.7393,-90.3518,80.56,80,86,7.7
104,Yulara,-25.2406,130.9889,69.64,52,4,10.36
105,Berck,50.4,1.6,54.52,71,0,5.75
106,Mehamn,71.0357,27.8492,37.99,93,100,33.26
107,Palu,-0.8917,119.8707,75.88,97,100,2.53
108,Dickinson,29.4608,-95.0513,82.06,77,100,9.22
109,Imbituba,-28.24,-48.6703,66.11,69,9,11.59
110,Yeppoon,-23.1333,150.7333,64.18,83,7,10.94
111,Jamestown,42.097,-79.2353,50.52,42,0,14.97
112,Novikovo,51.1537,37.8879,49.64,89,100,4.5
113,Narsaq,60.9167,-46.05,32.65,76,3,3.96
114,Awbari,26.5921,12.7805,69.19,28,0,16.69
115,Tarnos,43.5417,-1.4628,55.62,94,100,5.75
116,Ourossogui,15.6064,-13.3211,93.81,12,32,10.98
117,Bredasdorp,-34.5322,20.0403,59.14,73,0,13.18
118,Anito,12.4497,125.2886,76.77,87,87,5.08
119,Paamiut,61.994,-49.6678,27.28,77,10,17.27
120,Flin Flon,54.7682,-101.865,30.04,24,100,4.61
121,Port Alfred,-33.5906,26.891,61.18,84,100,3.0
122,Haysville,37.5645,-97.3523,59.31,31,0,18.41
123,Klaksvik,62.2266,-6.589,49.12,92,100,22.12
124,Surt,31.2089,16.5887,63.01,79,22,17.67
125,Hilo,19.7297,-155.09,77.29,97,100,3.44
126,Lompoc,34.6391,-120.4579,71.02,69,100,13.0
127,Ostrovnoy,68.0531,39.5131,31.24,85,100,16.04
128,Husavik,66.0449,-17.3389,43.54,84,100,13.51
129,Tautira,-17.7333,-149.15,80.51,75,19,13.04
130,Ust-Kuyga,70.0167,135.6,-9.74,99,99,2.19
131,Butaritari,3.0707,172.7902,81.14,78,34,14.54
132,Axim,4.8699,-2.2405,74.17,95,100,7.18
133,Arrecife,28.963,-13.5477,71.58,68,0,16.11
134,Yima,34.7381,111.8839,47.8,34,98,2.95
135,Gravdal,68.1214,13.5031,41.85,99,100,12.33
136,Sri Aman,1.2376,111.4621,73.44,99,100,1.1
137,Tiksi,71.6872,128.8694,-10.79,98,66,4.23
138,Gotsu,35.0,132.2167,46.67,47,85,5.17
139,Tuatapere,-46.1333,167.6833,45.48,79,75,4.54
140,Nanyamba,-10.6833,39.8333,71.01,99,18,3.69
141,Fernley,39.608,-119.2518,61.66,26,28,11.99
142,Picui,-6.5106,-36.3469,77.72,75,92,12.37
143,Nantucket,41.2835,-70.0995,60.94,76,0,19.57
144,Datong,40.0936,113.2914,49.86,26,100,3.22
145,Chimore,-16.9833,-65.1333,77.36,58,12,2.62
146,Katsuura,35.1333,140.3,53.89,68,100,9.6
147,Nome,64.5011,-165.4064,33.17,80,100,17.85
148,Noumea,-22.2763,166.4572,75.0,99,1,5.99
149,Cidreira,-30.1811,-50.2056,66.18,71,100,7.67
150,Mirabad,30.4362,61.8383,73.42,30,39,17.13
151,Samarai,-10.6167,150.6667,79.88,81,100,3.22
152,Antofagasta,-23.65,-70.4,62.71,78,18,7.99
153,Tsumeb,-19.2333,17.7167,73.85,48,100,3.13
154,Severo-Kurilsk,50.6789,156.125,31.24,79,100,14.0
155,Ulladulla,-35.35,150.4667,58.28,86,8,5.08
156,Saint-Philippe,-21.3585,55.7679,74.79,81,57,10.98
157,Galesong,-5.3166,119.3661,75.22,84,99,5.12
158,Namtsy,62.7161,129.6658,3.61,100,83,4.34
159,Chokurdakh,70.6333,147.9167,-9.67,100,100,2.66
160,Dingle,10.9995,122.6711,75.25,90,41,5.21
161,La Palma,33.8464,-118.0467,74.25,58,75,12.66
162,Chuy,-33.6971,-53.4616,63.43,68,65,7.54
163,Leshukonskoye,64.8989,45.7622,20.48,95,34,4.72
164,Atuona,-9.8,-139.0333,79.25,78,19,15.97
165,Vao,-22.6667,167.4833,76.46,70,0,8.37
166,Kirovskiy,45.0917,133.5136,36.82,66,1,4.76
167,Sorland,67.667,12.6934,42.48,99,100,15.08
168,Saldanha,-33.0117,17.9442,61.11,59,0,11.83
169,Wagar,16.1525,36.2032,87.12,37,83,6.04
170,Birin,26.8865,88.0718,60.46,38,2,5.64
171,Alice Springs,-23.7,133.8833,71.15,32,100,5.75
172,Esso,55.9333,158.7,15.67,78,54,3.02
173,Storsteinnes,69.2408,19.2344,41.38,100,100,2.55
174,Poum,-20.2333,164.0167,77.94,69,4,6.69
175,Kosai,34.7105,137.5316,53.94,85,100,7.61
176,Nelson Bay,-32.7167,152.15,59.0,96,0,3.65
177,Palasa,18.7667,84.4167,78.57,85,37,8.1
178,Beringovskiy,63.05,179.3167,30.22,98,100,17.96
179,Hithadhoo,-0.6,73.0833,82.98,67,56,6.62
180,Angoram,-4.0625,144.0661,74.3,97,100,1.45
181,Ghanzi,-21.5667,21.7833,65.5,80,34,10.87
182,Berbera,10.4396,45.0143,82.0,83,84,6.15
183,Shizuishan,39.2333,106.7694,49.6,43,100,6.2
184,Westport,41.1415,-73.3579,67.32,67,96,4.0
185,Kilinochchi,9.3961,80.3982,78.06,91,40,7.36
186,Cedar City,37.6775,-113.0619,61.39,23,21,28.12
187,Bethel,41.3712,-73.414,66.29,57,98,7.0
188,Banda Aceh,5.5577,95.3222,80.29,81,87,2.53
189,Fort Morgan,40.2503,-103.8,56.05,26,0,21.85
190,Botwood,49.1499,-55.3482,54.9,68,23,13.73
191,Quatre Cocos,-20.2078,57.7625,76.08,84,33,15.95
192,Longyearbyen,78.2186,15.6401,13.57,92,93,4.59
193,Tura,25.5198,90.2201,69.62,79,13,7.02
194,Formosa,-26.1775,-58.1781,73.38,53,0,4.61
195,Grand Gaube,-20.0064,57.6608,76.37,84,15,4.0
196,Novyye Burasy,52.1324,46.0714,49.26,72,100,7.54
197,Etchoropo,26.7667,-109.6667,95.41,16,100,8.19
198,North Platte,41.1239,-100.7654,48.07,36,99,8.01
199,Lebu,-37.6167,-73.65,57.69,76,11,13.8
200,Hovd,48.0056,91.6419,39.27,17,0,3.87
201,Alofi,-19.0595,-169.9187,81.9,74,30,10.65
202,Saint-Leu,-21.15,55.2833,75.31,77,46,6.11
203,Boca Do Acre,-8.7522,-67.3978,82.51,79,78,1.59
204,Lubango,-14.9172,13.4925,61.79,86,100,2.8
205,Itarema,-2.9248,-39.9167,79.47,82,43,6.98
206,Vanavara,60.34,102.2797,37.83,96,100,9.86
207,Trat,12.5,102.5,77.83,81,85,2.01
208,Meulaboh,4.1363,96.1285,78.17,86,28,1.7
209,Codrington,-38.2667,141.9667,67.17,42,100,19.64
210,Pangnirtung,66.1451,-65.7125,9.5,90,100,1.05
211,San Rafael,-34.6177,-68.3301,74.8,29,5,8.23
212,Kingman,35.1894,-114.053,78.19,11,0,26.46
213,Dikson,73.5069,80.5464,11.16,94,100,16.11
214,Villa San Giovanni,38.2276,15.6386,62.62,59,97,5.75
215,Coquimbo,-29.9533,-71.3436,60.53,77,20,11.5
216,Ferme-Neuve,46.7001,-75.4493,40.64,32,100,8.43
217,Marolambo,-20.05,48.1167,67.87,99,62,1.14
218,Tevaitoa,-16.7833,-151.5,81.54,72,10,14.52
219,San Vicente,-26.6167,-54.1333,62.76,63,0,2.26
220,Watsa,3.0372,29.5355,66.79,84,100,2.77
221,Guican,6.4618,-72.4113,56.39,84,96,1.32
222,Albury,-36.0833,146.9167,57.02,100,30,5.01
223,Mumford,5.2618,-0.759,79.16,82,100,12.66
224,Krasnoselkup,65.7,82.4667,22.42,95,100,20.02
225,Hailin,44.5833,129.4167,35.01,42,26,3.36
226,Salym,60.0625,71.4789,31.69,94,100,6.46
227,Aklavik,68.2191,-135.0107,11.79,78,16,11.83
228,Pevek,69.7008,170.3133,6.82,93,100,6.35
229,La Ronge,55.1001,-105.2842,28.72,70,100,5.59
230,Urdoma,61.7533,48.5442,20.79,98,47,2.13
231,Rio Gallegos,-51.6226,-69.2181,51.85,71,75,11.5
232,Frolovo,49.7713,43.6622,47.39,68,100,7.94
233,Baijiantan,45.6333,85.1833,52.59,15,0,7.52
234,Ribeira Grande,38.5167,-28.7,60.62,78,34,14.74
235,Tarata,-17.6167,-66.0167,74.62,39,3,5.97
236,Guerrero Negro,27.9769,-114.0611,67.42,63,100,22.62
237,Rustenburg,-25.6676,27.2421,58.19,93,98,11.48
238,Sao Jose Da Coroa Grande,-8.8978,-35.1478,81.39,82,6,10.6
239,Mattru,7.6244,-11.8332,79.97,70,99,4.23
240,Yar-Sale,66.8333,70.8333,12.88,92,99,14.5
241,Provideniya,64.3833,-173.3,31.82,91,98,12.66
242,Touros,-5.1989,-35.4608,80.94,80,76,7.25
243,Kavieng,-2.5744,150.7967,81.99,78,50,8.68
244,Nabire,-3.3667,135.4833,75.79,93,98,2.51
245,Nipawin,53.3668,-104.0009,28.4,63,100,4.63
246,Thompson,55.7435,-97.8558,26.06,57,100,2.71
247,Sampit,-2.5333,112.95,72.23,97,100,1.68
248,Tuktoyaktuk,69.4541,-133.0374,3.54,79,34,4.92
249,Tigzirt,36.8886,4.1198,56.28,82,0,9.04
250,Tual,-5.6667,132.75,83.62,74,100,4.94
251,Lorengau,-2.0226,147.2712,81.27,80,39,4.63
252,Airai,-8.9266,125.4092,59.14,92,64,2.35
253,Eureka,40.8021,-124.1637,57.13,57,21,7.0
254,Houma,29.5958,-90.7195,86.0,74,49,8.01
255,Vestmanna,62.1564,-7.1664,47.32,87,100,18.41
256,Victoria,22.2855,114.1577,71.19,75,100,15.99
257,Am Timan,11.0297,20.2827,91.71,28,37,3.29
258,Khilok,51.3674,110.4676,27.12,89,27,2.98
259,Marystown,47.1666,-55.1483,48.85,100,9,7.0
260,Bengkulu,-3.8004,102.2655,76.89,89,100,3.0
261,Ayni,39.3941,68.5377,61.3,57,100,4.54
262,Havre-Saint-Pierre,50.2334,-63.5986,36.72,75,55,19.69
263,Sorong,-0.8833,131.25,81.0,83,75,12.97
264,Tabou,4.423,-7.3528,79.84,80,98,8.16
265,Kununurra,-15.7667,128.7333,75.18,88,20,0.0
266,Leningradskiy,69.3833,178.4167,6.21,94,64,8.32
267,Melong,5.1218,9.9614,70.09,93,79,1.12
268,Galle,6.0367,80.217,80.73,80,61,4.14
269,Ondjiva,-17.0667,15.7333,70.48,65,100,6.02
270,Vila Velha,-20.3297,-40.2925,76.95,75,75,10.0
271,Kushmurun,52.4503,64.6311,46.08,66,32,6.22
272,Aqtobe,50.2797,57.2072,44.69,70,0,4.47
273,Iqaluit,63.7506,-68.5145,9.7,72,100,3.62
274,Chapais,49.7834,-74.8492,33.58,70,100,10.87
275,Denizli,37.8402,29.0698,62.06,39,55,1.74
276,Lasa,46.6166,10.7002,36.84,93,36,7.34
277,Balykshi,47.0667,51.8667,42.8,93,36,4.47
278,Guanaja,16.4,-85.9,81.03,74,80,16.62
279,Gualeguay,-33.1416,-59.3097,69.17,53,69,5.64
280,Santa Maria,-29.6842,-53.8069,62.11,78,3,4.94
281,Pittsfield,42.4501,-73.2454,51.42,79,100,14.97
282,Cacoal,-11.4386,-61.4472,79.3,92,26,4.12
283,Owensboro,37.7742,-87.1133,64.45,58,100,13.04
284,Bilma,18.6853,12.9164,89.24,9,9,4.54
285,Japura,-0.3167,102.35,74.03,99,100,1.25
286,Arraial Do Cabo,-22.9661,-42.0278,73.26,78,20,10.36
287,Kruisfontein,-34.0033,24.7314,60.89,83,100,5.82
288,Luderitz,-26.6481,15.1594,64.17,57,0,13.76
289,College,64.8569,-147.8028,33.75,33,20,11.5
290,Athabasca,54.7169,-113.2854,31.95,59,100,8.12
291,Pandan,14.0453,124.1694,77.54,87,97,8.7
292,Komsomolskiy,40.4272,71.7189,69.37,22,7,4.09
293,Ostashkov,57.1467,33.1075,27.23,93,11,6.06
294,Dakar,14.6937,-17.4441,67.08,88,2,15.08
295,Capljina,43.1214,17.6844,60.94,63,98,13.85
296,Clyde River,70.4692,-68.5914,-3.77,77,100,4.61
297,Veinticinco De Mayo,-35.4323,-60.1727,71.98,49,28,1.01
298,Kartuzy,54.3342,18.1974,35.78,85,0,6.91
299,Geraldton,-28.7667,114.6,66.61,77,96,16.11
300,Pyshchug,58.8873,45.7134,26.56,85,84,4.47
301,Guanay,-15.4975,-67.8797,79.95,67,87,2.3
302,Atambua,-9.1061,124.8925,72.84,89,93,2.82
303,Laurinburg,34.7741,-79.4628,76.96,61,75,9.22
304,Kralendijk,12.15,-68.2667,84.18,70,20,25.32
305,Saint Anthony,45.0205,-93.218,43.3,36,0,19.57
306,Ahuimanu,21.4447,-157.8378,78.51,79,75,11.5
307,Moerai,-22.4333,-151.3333,79.65,71,27,4.12
308,Nanortalik,60.1432,-45.2371,30.52,84,7,10.0
309,Porbandar,21.6422,69.6093,80.06,74,0,9.17
310,Newport,51.5877,-2.9984,57.33,74,81,4.76
311,Derbent,42.0678,48.2899,50.7,75,30,4.36
312,Palmas,-10.2128,-48.3603,84.07,74,75,3.44
313,Buchanan,5.8808,-10.0467,80.8,84,99,9.26
314,San Cristobal,7.7669,-72.225,80.78,65,100,5.66
315,Kohlu,29.8962,69.252,72.28,9,67,2.84
316,Izberbash,42.5696,47.8645,42.85,75,17,6.13
317,Sukumo,32.9333,132.7333,50.36,66,100,3.6
318,Bang Saphan,11.2126,99.5117,76.32,88,77,3.38
319,Souillac,-20.5167,57.5167,76.33,85,34,14.32
320,Mahebourg,-20.4081,57.7,79.09,78,40,11.5
321,Baker City,44.7749,-117.8344,38.59,77,98,12.64
322,Mayahi,13.9553,7.6712,89.33,26,89,9.19
323,Agadez,19.75,10.25,83.05,9,94,12.66
324,Talnakh,69.4865,88.3972,16.21,93,100,8.68
325,Port Lincoln,-34.7333,135.8667,65.01,88,100,10.2
326,Nishihara,26.1842,127.7558,65.48,68,75,8.05
327,Natchitoches,31.7668,-93.1335,85.05,65,100,8.05
328,Hamza,40.4264,71.4956,70.29,22,8,4.83
329,Talara,-4.5772,-81.2719,77.76,61,0,17.27
330,Hamois,50.3348,5.1512,53.44,58,21,6.78
331,Launceston,-41.45,147.1667,59.14,96,75,0.0
332,Lincoln,40.8,-96.667,54.14,30,0,13.8
333,Comodoro Rivadavia,-45.8667,-67.5,59.32,55,22,14.58
334,Tilichiki,60.4667,166.1,27.05,87,98,4.83
335,Okha,53.5739,142.9478,27.45,86,100,11.01
336,Aksarayskiy,46.7924,48.0119,57.83,59,76,7.54
337,Altamira,-3.2033,-52.2064,77.83,92,78,2.62
338,Edgewater,28.9889,-80.9023,89.17,73,40,12.66
339,Kafanchan,9.5833,8.3,74.43,77,90,10.07
340,Bayan,46.0833,127.4,36.32,32,74,6.62
341,Spearfish,44.4908,-103.8594,46.11,38,0,26.46
342,Taoudenni,22.6783,-3.9836,81.19,17,0,11.56
343,Carauari,-4.8828,-66.8958,83.8,74,94,1.16
344,Champerico,14.3,-91.9167,87.62,61,20,14.92
345,Xining,36.6167,101.7667,36.01,75,99,3.71
346,Caravelas,-17.7125,-39.2481,77.7,68,100,11.77
347,Tahta,26.7693,31.5021,83.77,12,0,4.23
348,Novobiryusinskiy,56.9578,97.7076,34.9,96,100,3.94
349,Thunder Bay,48.4001,-89.3168,30.29,62,100,4.0
350,Salamiyah,35.0113,37.0532,59.58,45,63,1.95
351,Xifeng,42.7372,124.7222,44.47,43,11,5.61
352,Hobyo,5.3505,48.5268,82.71,76,41,18.63
353,Badiraguato,25.3667,-107.5167,98.53,6,97,6.58
354,Ponta Do Sol,32.6667,-17.1,72.23,45,100,7.49
355,Whitehorse,60.7161,-135.0538,36.1,77,100,5.99
356,Rantepao,-2.9701,119.8978,67.66,96,99,2.24
357,San Juan,-31.5375,-68.5364,75.61,29,0,13.42
358,Margate,51.3813,1.3862,52.3,83,11,3.0
359,San Patricio,28.017,-97.5169,91.49,55,90,14.97
360,Odweyne,9.4092,45.064,79.29,53,46,5.55
361,Cherskiy,68.75,161.3,17.64,93,100,9.01
362,Porto Novo,6.4965,2.6036,81.79,78,83,6.71
363,Mogoytuy,51.2833,114.9167,29.17,47,94,4.09
364,Ust-Koksa,50.2696,85.6108,38.35,73,0,1.36
365,Inuvik,68.3499,-133.7218,9.91,79,21,5.88
366,Bathsheba,13.2167,-59.5167,83.01,65,20,17.27
367,Predivinsk,57.0669,93.4378,40.1,89,100,5.86
368,Alenquer,-1.9417,-54.7383,79.97,87,92,0.51
369,Shubarkuduk,49.1447,56.4872,47.25,74,97,2.1
370,Anloga,5.7947,0.8973,83.26,78,60,14.05
371,Campos Novos,-27.4017,-51.225,55.62,80,0,2.71
372,Baft,29.234,56.6057,61.14,26,100,11.25
373,Inta,66.0317,60.1659,14.34,96,98,5.97
374,Daru,-9.0763,143.2092,79.48,86,65,6.93
375,Mayumba,-3.432,10.6554,78.04,90,32,4.23
376,Honningsvag,70.9821,25.9704,38.95,87,100,27.63
377,Diego De Almagro,-26.3667,-70.05,71.38,22,0,10.49
378,Rusape,-18.5278,32.1284,61.16,94,94,6.17
379,Dawei,14.0833,98.2,76.69,90,46,2.33
380,Mao,39.8885,4.2658,63.16,59,0,6.91
381,Saint-Paul,-21.0096,55.2707,76.35,83,37,0.45
382,Anadyr,64.75,177.4833,21.67,90,73,11.59
383,Izumo,35.3667,132.7667,44.51,46,63,4.45
384,Kaeo,-35.1,173.7833,62.33,97,100,15.03
385,Jinzhou,41.1078,121.1417,50.68,29,0,3.27
386,Myanaung,18.2833,95.3167,82.85,66,63,0.65
387,Boa Vista,2.8197,-60.6733,91.38,43,20,9.22
388,Pasighat,28.0667,95.3333,66.65,93,100,4.45
389,Acarau,-2.8856,-40.12,79.99,81,33,7.47
390,Roald,62.5833,6.1333,45.52,81,100,8.05
391,Palafrugell,41.9174,3.1631,63.36,46,63,3.18
392,Noyabrsk,63.1994,75.4507,20.26,90,100,15.26
393,Losheim,49.5167,6.75,48.72,56,56,8.88
394,Saint-Joseph,-21.3667,55.6167,73.78,80,30,12.66
395,Hualmay,-11.0964,-77.6139,70.39,74,98,13.18
396,Salinopolis,-0.6136,-47.3561,79.14,86,100,8.05
397,Mantua,45.1667,10.7833,59.61,74,32,9.69
398,Olafsvik,64.8945,-23.7142,43.84,98,100,11.95
399,Hakui,36.8833,136.7833,42.69,70,8,3.58
400,Lavrentiya,65.5833,-171.0,28.2,93,99,10.74
401,Greytown,-29.0642,30.5928,50.31,99,100,0.58
402,Sur,22.5667,59.5289,87.01,43,0,5.26
403,Tiangua,-3.7322,-40.9917,69.1,97,65,3.06
404,Tiznit,29.5833,-9.5,76.32,25,16,1.45
405,Marathon,44.9,-89.7668,36.93,50,100,14.97
406,Lianzhou,24.7811,112.3825,54.03,94,100,2.64
407,Svetlyy,54.675,20.1347,36.97,83,87,8.19
408,Yongan,39.6957,113.6871,48.36,22,100,3.0
409,Araouane,18.9048,-3.5265,79.29,12,15,10.04
410,Labytnangi,66.6572,66.4183,5.63,91,88,5.19
411,Segou,13.4317,-6.2157,90.25,28,38,14.79
412,Kemi,65.8596,24.8228,29.97,93,100,2.3
413,Lundazi,-12.2929,33.1782,63.79,90,76,5.97
414,Puerto Gaitan,4.3133,-72.0816,77.45,83,98,8.55
415,La Orilla,17.9833,-102.2333,83.17,55,52,11.05
416,Kindu,-2.95,25.95,69.67,93,100,1.54
417,Chetumal,18.5,-88.3,86.05,66,40,18.41
418,Ketchikan,55.3422,-131.6461,50.47,34,20,8.05
419,Sao Gabriel Da Cachoeira,-0.1303,-67.0892,80.92,89,57,1.1
420,Abha,18.2164,42.5053,66.45,32,7,6.91
421,Torbay,47.6666,-52.7314,43.9,67,1,13.56
422,Nueve De Julio,-35.4444,-60.8831,68.34,42,73,5.39
423,Coihaique,-45.5752,-72.0662,61.41,54,0,0.0
424,Dum Duma,27.5667,95.5667,66.02,92,100,6.89
425,Hailun,47.45,126.9333,31.59,53,2,6.78
426,Humen,22.819,113.6731,71.13,67,100,8.72
427,Puerto Cabezas,14.0351,-83.3888,84.34,52,9,9.4
428,Monrovia,6.3005,-10.7969,76.77,88,61,9.33
429,Vagur,61.4732,-6.8119,47.08,90,100,22.53
430,Cayenne,4.9333,-52.3333,82.44,1,40,11.5
431,Martapura,-3.4167,114.85,71.69,100,98,2.3
432,Gigmoto,13.7796,124.39,77.5,87,95,7.4
433,Miyako,39.6367,141.9525,39.7,74,1,5.88
434,Richards Bay,-28.783,32.0377,63.97,87,100,7.54
435,Honiara,-9.4333,159.95,79.38,84,100,3.76
436,Bonavista,48.6499,-53.1147,43.11,74,4,14.2
437,Linqu,36.5156,118.5397,49.42,29,5,6.67
438,Shorapani,42.0898,43.0866,49.84,70,1,4.94
439,Nsoko,-27.0333,31.95,60.71,96,100,6.58
440,Lgov,51.6307,35.2775,41.18,95,100,7.83
441,Sekoma,-24.4,23.8833,61.41,87,74,11.12
442,Isangel,-19.55,169.2667,82.02,74,9,4.36
443,Aberdeen,57.1437,-2.0981,55.49,98,75,5.75
444,Nimes,43.8333,4.35,68.41,30,0,13.8
445,Port Hardy,50.6996,-127.4199,44.62,57,1,8.19
446,La Rioja,42.25,-2.5,49.78,79,0,4.59
447,Meghri,38.9029,46.2446,46.62,72,45,3.74
448,Mwanza,-2.5167,32.9,70.38,81,99,3.94
449,Borogontsy,62.6683,131.1683,11.21,97,98,3.51
450,Novomikhaylovskiy,44.2581,38.8578,48.76,77,38,4.0
451,Stromness,58.965,-3.296,46.36,92,100,8.99
452,Fredericksburg,38.3032,-77.4605,81.72,23,0,13.8
453,Juneau,58.3019,-134.4197,42.22,67,100,9.22
454,Puerto Quijarro,-17.7833,-57.7667,87.71,40,1,4.25
455,Wattegama,6.7989,81.4808,74.5,96,84,3.44
456,Zhuhai,22.2769,113.5678,69.58,78,40,13.8
457,Kapuskasing,49.4169,-82.4331,28.49,54,100,8.05
458,Yangjiang,21.85,111.9667,70.14,81,100,9.75
459,Zemio,5.0314,25.1361,69.76,93,100,3.24
460,Los Llanos De Aridane,28.6585,-17.9182,65.12,88,20,13.8
461,Aykhal,66.0,111.5,25.34,96,100,10.0
462,Sao Joao Da Barra,-21.6403,-41.0511,75.29,66,89,16.13
463,Nanchang,28.6833,115.8833,51.55,86,90,3.2
464,Dilla,6.41,38.31,63.14,91,100,2.95
465,Guaymas,27.9333,-110.9,91.89,17,40,14.97
466,Severnyy-Kospashskiy,59.0925,57.8008,22.33,97,93,5.01
467,Kirakira,-10.4544,161.9205,82.18,75,78,6.06
468,Chumikan,54.7183,135.315,23.13,92,100,2.59
469,Paranavai,-23.0731,-52.4653,65.3,72,0,4.16
470,Mahon,39.8885,4.2658,63.16,59,0,6.91
471,Binzhou,37.3667,118.0167,47.7,33,5,7.67
472,Kulhudhuffushi,6.6221,73.07,84.02,72,80,7.11
473,Narino,5.6089,-75.1766,68.97,91,100,0.6
474,Pokrovsk,48.282,37.1758,47.21,80,100,10.58
475,Marly,50.3456,3.5496,55.42,68,4,7.99
476,Llata,-9.4167,-76.7833,65.37,59,45,7.18
477,Tashigang,27.3331,91.5542,59.36,85,5,3.65
478,Mlonggo,-6.5333,110.7,77.77,88,29,4.18
479,Wajid,3.8093,43.2471,81.45,60,100,10.51
480,Portree,57.4129,-6.1942,51.53,79,100,9.64
481,Gryfice,53.9165,15.2003,44.83,58,59,3.38
482,Rudbar,30.15,62.6,78.49,25,58,9.35
483,Yurimaguas,-5.9,-76.0833,86.16,66,40,4.61
484,Bud,39.447,-86.1758,60.75,34,1,16.24
485,Blagoyevo,63.3667,47.9167,17.62,97,21,2.77
486,Bandarbeyla,9.4942,50.8122,81.63,79,30,8.08
487,Ojinaga,29.5667,-104.4167,92.57,11,0,4.61
488,Skibbereen,51.55,-9.2667,52.11,98,100,11.99
489,Khuzdar,27.7384,66.6434,74.34,36,5,5.86
490,Nyurba,63.2842,118.3319,7.92,96,85,4.38
491,Haradok,55.4624,29.9816,32.63,81,72,9.64
492,Sande,53.5049,8.0142,42.98,73,5,8.19
493,Pishva,35.308,51.7267,56.77,45,18,6.82
494,Waw,7.7029,27.9953,82.42,56,61,7.11
495,Chase,50.8165,-119.6857,54.32,30,94,4.23
496,Newala,-10.9431,39.2787,66.34,98,16,1.28
497,Flinders,-34.5833,150.8552,57.06,92,2,4.0
498,Petropavlovsk-Kamchatskiy,53.0452,158.6483,27.19,64,0,2.24
499,Coahuayana,18.7333,-103.6833,89.02,44,77,8.08
500,Roebourne,-20.7833,117.1333,82.71,40,29,6.4
501,Luanda,-8.8368,13.2343,78.8,89,75,12.66
502,Puerto Penasco,31.3167,-113.5333,71.91,67,6,8.01
503,Miracema Do Tocantins,-9.5618,-48.3967,76.77,90,100,4.81
504,Porosozero,62.7191,32.727,27.52,89,99,3.83
505,Tshane,-24.0196,21.8684,63.52,79,3,14.12
506,Birao,10.2849,22.7882,87.6,29,93,3.89
507,Haines Junction,60.7522,-137.5108,32.07,68,100,0.6
508,Tres Arroyos,-38.3739,-60.2798,65.07,47,17,2.51
509,Kokomo,40.4864,-86.1336,54.19,40,0,19.57
510,Guider,9.9342,13.9486,91.35,41,97,4.52
511,Ushtobe,45.2514,77.9838,56.32,23,0,5.95
512,Tadine,-21.55,167.8833,78.44,78,0,6.38
513,Maple Valley,47.3927,-122.0464,51.26,74,75,12.66
514,Urengoy,65.9667,78.3667,16.72,92,100,16.37
515,Bowen,-20.0167,148.2333,71.22,78,58,10.51
516,Sungairaya,0.7,108.9,77.05,89,89,3.58
517,Rio Pardo De Minas,-15.6097,-42.5397,69.08,90,99,6.62
518,Shiyan,32.6475,110.7781,46.89,84,99,3.85
519,Pemangkat,1.1667,108.9667,77.23,89,94,5.19
520,Shache,38.4167,77.2406,58.01,20,3,11.32
521,Karratha,-20.7377,116.8463,82.53,43,40,6.85
522,Tucuman,-26.8241,-65.2226,71.6,56,40,2.3
523,Cotonou,6.3654,2.4183,82.83,79,68,10.16
524,Suyan,6.0603,125.3853,76.23,89,46,1.34
525,Yei,4.095,30.6779,67.82,86,99,3.15
526,Camabatela,-8.1881,15.375,63.86,95,100,2.04
527,Greenfield,42.9614,-88.0126,45.09,43,75,17.27
528,Maiduguri,11.8464,13.1603,94.3,29,100,4.7
529,Swellendam,-34.0226,20.4417,56.03,84,0,8.9
530,Kovdor,67.5662,30.4758,34.03,84,100,11.32
531,Xiaoshi,41.2971,124.1209,46.45,33,0,4.14
532,Karatau,43.1667,70.4667,61.14,44,81,2.82
533,Hay River,60.8156,-115.7999,9.97,84,100,11.12
534,Tocaima,4.4582,-74.6343,85.73,64,97,1.72
535,Jining,35.405,116.5814,43.45,42,87,5.23
536,Kalmunai,7.4167,81.8167,79.29,87,79,9.71
537,Nazas,25.2333,-104.1333,91.47,6,99,1.9
538,Caala,-12.8525,15.5606,61.66,91,100,1.9
539,Poli,-3.3333,36.8,60.28,93,100,1.28
540,Olinda,-8.0089,-34.8553,83.93,74,40,6.91
541,Springbok,-29.6643,17.8865,62.2,34,0,7.47
542,Najran,17.4924,44.1277,79.45,28,88,5.41
543,Oliveira Dos Brejinhos,-12.3169,-42.8961,74.03,85,95,3.4
544,Montepuez,-13.1256,38.9997,68.65,99,17,4.41
545,San Quintin,30.4833,-115.95,65.59,65,0,22.24
546,Ryotsu,38.0833,138.4333,45.3,67,1,5.17
547,Trinidad,-14.8333,-64.9,82.38,61,20,6.91
548,Sabha,27.0377,14.4283,72.7,22,0,21.09
549,Pringsewu,-5.3582,104.9744,73.87,97,44,1.88
550,Srednekolymsk,67.45,153.6833,7.11,97,100,3.87
551,Alexandria,31.2156,29.9553,67.19,35,70,17.92
552,Channel-Port Aux Basques,47.5702,-59.1367,41.0,79,100,6.13
553,Envira,-7.3,-70.2167,82.17,75,73,3.76
554,Ixtapa,20.7,-105.2,79.83,61,40,9.22
555,Taltal,-25.4,-70.4833,64.08,71,24,6.55
556,Baruun-Urt,46.6806,113.2792,36.72,50,33,5.91
557,Kieta,-6.2167,155.6333,79.75,82,100,0.87
558,Kamenka,51.3223,42.7678,50.47,78,100,11.36
559,Leh,34.1667,77.5833,34.92,45,0,6.13
560,Charters Towers,-20.1,146.2667,67.26,81,70,8.34
561,Valparaiso,-33.0393,-71.6273,64.63,67,0,8.05
562,Garissa,-0.4536,39.6401,81.07,63,100,17.54
563,Vila Franca Do Campo,37.7167,-25.4333,61.21,83,100,8.34
564,Laguna,38.421,-121.4238,69.89,68,100,11.5
565,Ponta Delgada,37.7333,-25.6667,61.52,88,20,10.36
566,Lemoore,36.3008,-119.7829,73.47,40,0,14.97
567,Jiayuguan,39.8167,98.3,40.03,21,0,17.13
568,Tazovskiy,67.4667,78.7,13.24,93,100,16.84
569,Seabra,-12.4186,-41.7703,71.87,87,100,4.07
570,Kavaratti,10.5669,72.642,83.3,73,21,3.36
571,Hanford,36.3275,-119.6457,73.38,40,0,9.22
572,Muli,2.9167,73.5667,83.14,77,76,8.57
573,Puerto Ayacucho,5.6639,-67.6236,79.45,77,100,4.0
574,Suntar,62.1444,117.6319,15.49,93,87,4.92
575,Porto Velho,-8.7619,-63.9039,80.65,83,40,2.3
576,Nizhniy Odes,63.6445,54.856,14.88,97,61,2.73
577,Kutum,14.2,24.6667,77.67,8,52,6.24
578,Erdenet,49.0333,104.0833,33.01,62,14,3.76
579,Morondava,-20.2833,44.2833,82.13,84,60,3.87
580,Ocotal,13.6321,-86.4752,96.06,17,53,8.01
581,Latung,5.5,120.8833,81.59,76,99,3.91
582,Dharchula,29.85,80.5333,60.75,31,0,8.55
583,Saint-Augustin,51.226,-58.6502,32.67,98,100,10.13
584,Quesnel,52.9999,-122.5029,47.25,26,46,3.74
585,Den Helder,52.9599,4.7593,51.98,61,10,10.36
586,Kosa,59.9445,54.9977,15.94,97,20,3.76
587,Nikolsk,53.7189,46.0712,48.43,71,100,14.18
588,Zhigansk,66.7697,123.3711,-8.1,100,83,6.87
589,Manavalakurichi,8.1333,77.3,81.64,80,33,7.78
590,Sibolga,1.7427,98.7792,77.41,86,81,2.8
591,Kizema,61.113,44.8302,23.36,96,16,2.55
592,Tuxpan,19.55,-103.4,82.17,18,87,8.3
593,Constitucion,-35.3333,-72.4167,61.61,64,3,8.48
594,Biloela,-24.4167,150.5,61.32,79,0,5.99
595,Matagami,49.7502,-77.6328,34.29,63,100,8.14
596,Akhisar,38.9185,27.8401,61.03,53,74,2.82
597,Tezu,27.9167,96.1667,65.66,93,100,6.6
598,Mitu,1.1983,-70.1733,78.26,82,99,1.81
599,Nuuk,64.1835,-51.7216,27.21,68,20,10.36
600,Chistogorskiy,53.9835,87.3843,42.28,84,12,3.74
601,Lingao,19.9103,109.6859,75.33,83,99,10.11
602,Lambarene,-0.7001,10.2406,76.71,93,100,2.91
603,Lusambo,-4.9667,23.45,70.59,97,99,1.5
604,Port Blair,11.6667,92.75,82.87,67,67,2.21
605,Fredericton,45.9454,-66.6656,47.37,88,100,2.3
606,Willowmore,-33.2926,23.4895,50.72,82,58,10.85
607,Presidencia Roque Saenz Pena,-26.7852,-60.4388,68.99,60,68,5.93
608,Kenai,60.5544,-151.2583,46.02,54,100,3.44
609,Sokoni,-6.4333,39.55,81.61,77,100,10.11
610,Bougouni,11.417,-7.479,80.1,58,72,15.26
611,Bandar,2.05,99.75,73.54,97,100,2.51
612,Benjamin Constant,-4.3831,-70.0311,77.13,88,40,3.44
613,Waipawa,-41.4122,175.5153,53.69,67,78,5.77
614,Carballo,43.213,-8.691,56.91,88,83,0.81
615,Benghazi,32.1167,20.0667,62.6,87,76,13.27
616,Fenoarivo,-18.933,47.4354,64.47,100,75,8.05
617,Hofn,64.2539,-15.2082,45.57,100,100,12.39
618,Muzhi,65.3667,64.6667,15.03,84,95,8.19
619,Edd,13.9297,41.6925,82.11,79,53,2.95
620,Snezhnogorsk,69.1933,33.2531,38.98,85,100,22.01
621,Phalaborwa,-23.943,31.1411,62.53,82,100,17.54
622,Evensk,61.95,159.2333,25.95,79,100,5.7
623,Tomarovka,50.6834,36.2331,48.96,92,100,9.04
624,Kinwat,19.6333,78.2,87.96,28,4,5.12
625,Napier,-39.4833,176.9167,58.28,81,100,3.0
626,Gatton,-27.55,152.2833,62.64,83,30,2.3
627,Half Moon Bay,37.4636,-122.4286,65.17,75,0,16.11
628,Bell Ville,-32.6259,-62.6887,69.8,33,8,5.5
629,Outlook,51.5001,-107.0513,34.23,60,96,7.63
630,Brae,60.3964,-1.353,45.5,96,100,17.13
631,Kandrian,-6.2167,149.55,78.03,89,100,5.26
632,Penzance,50.1186,-5.5371,52.81,90,96,11.54
633,Tumba,59.1986,17.8332,41.41,43,100,3.44
634,Kouroussa,10.65,-9.8833,88.86,29,28,3.47
635,La Suiza,9.8524,-83.6133,74.68,90,100,3.42
636,Knysna,-34.0363,23.0471,57.13,82,11,6.31
637,Gat,31.61,34.7642,68.4,39,24,3.87
638,Ternate,0.8,127.4,80.26,81,96,6.26
639,Guaiba,-30.1139,-51.325,69.66,65,40,8.05
640,Oleksandrivka,48.9634,32.2349,41.72,88,100,14.18
641,Palmer,42.1584,-72.3287,62.15,50,100,16.11
642,Taunggyi,20.7833,97.0333,63.5,73,22,3.13
643,Clemson,34.6834,-82.8374,70.74,78,0,6.91
644,Tayga,56.06,85.6197,52.72,72,96,9.17
645,Chifeng,42.2683,118.9636,43.86,29,0,8.77
646,Cumra,37.5732,32.7745,51.94,38,100,3.42
647,Sherlovaya Gora,50.5667,116.25,26.6,40,71,6.91
648,Oriximina,-1.7656,-55.8661,79.84,88,100,2.06
649,San Jeronimo,-11.9472,-75.2829,66.11,44,42,6.73
650,Maniwaki,46.3834,-75.966,42.22,30,100,8.25
651,Jumla,29.2747,82.1838,44.73,61,1,5.79
652,Makakilo City,21.3469,-158.0858,78.01,75,100,11.5
653,Shangqiu,34.45,115.65,42.76,45,51,4.41
654,Barcelos,41.5388,-8.6151,61.92,92,51,3.87
655,Eenhana,-17.4667,16.3333,69.69,68,99,4.43
656,Pindobacu,-10.7417,-40.3608,75.34,81,99,2.55
657,Port Macquarie,-31.4333,152.9167,58.89,84,18,6.67
658,Darnah,32.767,22.6367,66.2,70,100,20.24
659,Isla Vista,34.4133,-119.861,68.99,72,100,16.11
660,Bani Walid,31.7566,13.9942,59.83,72,22,11.88
661,Petrivka,46.9695,30.9591,49.42,79,88,16.15
662,Jalu,29.0331,21.5482,78.62,19,82,11.12
663,Catamarca,-28.4696,-65.7852,73.78,54,16,1.01
664,Karonga,-9.9333,33.9333,72.27,86,100,4.12
665,Marzuq,14.4,46.4667,71.55,45,0,5.77
666,Koslan,63.4564,48.8989,23.23,97,15,3.51
667,La Grande,45.3246,-118.0877,41.0,86,100,11.3
668,Hamilton,39.1834,-84.5333,64.24,43,20,18.41
669,Singkang,2.1006,102.7994,74.52,91,76,1.77
670,Pahrump,36.2083,-115.9839,75.25,22,1,21.99
671,Mareeba,-17.0,145.4333,70.52,97,100,1.97
672,Fort Pierce,27.4467,-80.3256,84.06,75,75,11.5
673,Ceyhan,37.0247,35.8175,57.04,58,11,1.74
674,Bubaque,11.2833,-15.8333,75.83,72,6,23.51
675,Namibe,-15.1961,12.1522,74.44,71,25,5.46
676,Diffa,13.3154,12.6113,91.26,24,20,2.46
677,Emerald,-23.5333,148.1667,58.33,73,0,6.33
678,Pacifica,37.6138,-122.4869,65.26,76,20,16.11
679,Ornskoldsvik,63.2909,18.7153,40.15,81,58,8.05
680,Ilo,-17.6394,-71.3375,70.66,68,0,11.5
681,Erenhot,43.6475,111.9767,45.34,28,99,6.33
682,Port-Cartier,50.0334,-66.8654,38.79,82,60,10.85
683,Pecos,31.4229,-103.4932,79.63,14,0,8.05
684,Madimba,-10.4,40.3333,76.17,93,15,7.38
685,Dukat,62.55,155.55,10.65,94,100,3.78
686,Verkhnyaya Inta,65.9811,60.3094,14.86,96,99,5.82
687,Esna,25.2934,32.554,86.0,10,0,6.26
688,Asfi,32.2994,-9.2372,67.87,56,80,14.65
689,Valdivia,-39.8142,-73.2459,66.29,49,75,3.38
690,Batagay,67.6333,134.6333,3.47,98,96,1.92
691,Yasnyy,51.0333,59.8742,42.69,72,9,5.46
